City_ID,City,Lat,Lng,Max Temp,Humidity,Cloudiness,Wind Speed,Country,Date
0,albany,42.6001,-73.9662,20.91,79,100,2.12,US,1689927113
1,magadan,59.5667,150.8,23.63,76,17,4.04,RU,1689927114
2,monticello,45.3055,-93.7941,16.79,96,75,0.0,US,1689927114
3,lincheng,19.9078,109.6858,31.76,68,94,5.36,CN,1689927114
4,lodeynoye pole,60.726,33.5531,17.65,66,100,5.61,RU,1689927114
5,saldanha,-33.0117,17.9442,11.01,52,54,3.63,ZA,1689927114
6,qaqortoq,60.7167,-46.0333,5.32,97,100,4.91,GL,1689927114
7,iqaluit,63.7506,-68.5145,3.85,100,75,1.54,CA,1689927115
8,waitangi,-43.9535,-176.5597,9.34,94,94,2.68,NZ,1689927115
9,st. john's,47.5649,-52.7093,18.97,92,95,2.24,CA,1689926931
10,tsiombe,-25.3,45.4833,18.92,63,100,6.62,MG,1689927115
11,bethel,41.3712,-73.414,22.58,91,100,0.0,US,1689927115
12,whitehorse,60.7161,-135.0538,17.67,57,75,2.06,CA,1689927116
13,edinburgh of the seven seas,-37.0676,-12.3116,12.04,68,19,10.67,SH,1689927116
14,yeniseysk,58.4497,92.1703,30.02,28,90,4.77,RU,1689926999
15,port-aux-francais,-49.35,70.2167,1.13,54,74,15.45,TF,1689927116
16,grytviken,-54.2811,-36.5092,-0.19,86,58,2.78,GS,1689926917
17,adamstown,-25.066,-130.1015,21.67,79,100,10.43,PN,1689927117
18,thunder bay,48.4001,-89.3168,12.99,94,0,2.06,CA,1689927117
19,bredasdorp,-34.5322,20.0403,9.26,66,37,3.32,ZA,1689927117
20,tiksi,71.6872,128.8694,5.71,68,58,1.88,RU,1689927117
21,praia da vitoria,38.7333,-27.0667,20.98,95,100,2.26,PT,1689927118
22,afaahiti,-17.75,-149.2833,20.93,65,10,8.13,PF,1689927118
23,pavlodar,52.3,76.95,30.89,30,0,8.0,KZ,1689927118
24,minas de marcona,-15.2119,-75.1103,12.84,84,0,2.2,PE,1689927119
25,aasiaat,68.7098,-52.8699,3.87,98,100,2.65,GL,1689927119
26,west island,-12.1568,96.8225,26.99,74,75,7.72,CC,1689927119
27,nicoya,10.1483,-85.452,24.0,92,100,1.25,CR,1689927119
28,ushuaia,-54.8,-68.3,-5.07,95,100,1.64,AR,1689927120
29,mhamid,29.82,-5.72,36.42,9,5,2.73,MA,1689927120
30,bielsk podlaski,52.7651,23.1865,21.68,45,87,3.96,PL,1689926843
31,port mathurin,-19.6833,63.4167,23.34,61,6,4.47,MU,1689927120
32,longyearbyen,78.2186,15.6401,8.91,76,100,4.63,SJ,1689926909
33,tofol,5.3248,163.0078,25.88,94,100,1.54,FM,1689927120
34,remire-montjoly,4.9167,-52.2667,22.02,100,20,0.0,GF,1689927121
35,happy valley-goose bay,53.3168,-60.3315,13.17,88,20,2.57,CA,1689927121
36,maba,24.6841,113.5984,32.77,60,25,3.12,CN,1689927121
37,puerto natales,-51.7236,-72.4875,-1.45,97,100,1.96,CL,1689927122
38,kone,-21.0595,164.8658,17.87,73,16,2.27,NC,1689927122
39,as samawah,31.332,45.2944,45.42,6,0,7.11,IQ,1689927122
40,prince rupert,54.3161,-130.3201,14.83,97,100,1.54,CA,1689927123
41,arkhangel'sk,64.5401,40.5433,17.62,95,100,3.01,RU,1689927061
42,georgetown,5.4112,100.3354,33.3,70,20,4.63,MY,1689927044
43,invercargill,-46.4,168.35,2.93,82,77,2.95,NZ,1689927123
44,papatowai,-46.5619,169.4708,5.8,72,6,7.86,NZ,1689927123
45,karratha,-20.7377,116.8463,26.96,28,16,5.08,AU,1689927124
46,taulaga,-11.0553,-171.0883,28.35,75,48,3.3,AS,1689927124
47,blackmans bay,-43.0167,147.3167,8.62,77,61,1.73,AU,1689927124
48,anna regina,7.2644,-58.5077,26.02,81,8,2.59,GY,1689927124
49,blagoveshchenka,52.8333,79.8667,29.05,38,55,4.8,RU,1689927124
50,shingu,33.7333,135.9833,26.95,75,13,1.71,JP,1689927125
51,sitka,57.0531,-135.33,16.94,72,100,0.0,US,1689927125
52,sampit,-2.5333,112.95,25.6,96,99,1.64,ID,1689927125
53,bantogon,6.5333,124.0333,28.82,72,99,2.95,PH,1689927125
54,san patricio,28.017,-97.5169,28.92,89,0,3.91,US,1689927126
55,port elizabeth,-33.918,25.5701,12.16,66,0,4.12,ZA,1689927126
56,olonkinbyen,70.9221,-8.7187,5.01,82,100,0.46,SJ,1689927126
57,kroya,-7.6331,109.2461,26.26,72,43,6.39,ID,1689927126
58,bilibino,68.0546,166.4372,23.25,46,74,1.17,RU,1689927126
59,ribeira grande,38.5167,-28.7,20.22,94,75,4.12,PT,1689927127
60,karlshamn,56.1706,14.8619,16.27,56,51,5.85,SE,1689927127
61,revda,56.801,59.9303,19.6,64,92,5.6,RU,1689927127
62,cadale,2.7603,46.3222,27.82,74,96,11.85,SO,1689927127
63,kerikeri,-35.2268,173.9474,12.73,92,100,1.34,NZ,1689927127
64,raposos,-19.9672,-43.8042,17.67,88,86,1.33,BR,1689927127
65,aldan,58.6031,125.3894,15.16,90,99,2.89,RU,1689927128
66,punta arenas,-53.15,-70.9167,-1.11,94,100,4.46,CL,1689927128
67,tidjikja,18.5564,-11.4271,27.23,55,6,6.14,MR,1689927128
68,codrington,-38.2667,141.9667,9.04,86,56,3.5,AU,1689927128
69,stanley,54.868,-1.6985,12.1,89,75,2.06,GB,1689927128
70,vilyuchinsk,52.9306,158.4028,17.15,87,100,2.75,RU,1689927129
71,carutapera,-1.195,-46.02,23.31,94,25,1.89,BR,1689927129
72,alofi,-19.0595,-169.9187,24.99,85,100,11.58,NU,1689927130
73,daru,-9.0763,143.2092,25.51,76,97,5.59,PG,1689927130
74,avarua,-21.2078,-159.775,21.03,68,75,1.54,CK,1689927130
75,atafu village,-8.5421,-172.5159,28.87,76,54,4.74,TK,1689927130
76,novyy urengoy,66.0833,76.6333,27.78,29,100,5.34,RU,1689927059
77,saint-pierre,-21.3393,55.4781,25.32,73,75,4.12,RE,1689927130
78,san luis de la loma,17.2706,-100.8939,26.99,80,16,1.84,MX,1689927130
79,fale old settlement,-9.3852,-171.2468,28.73,76,71,4.52,TK,1689927131
80,onega,63.9061,38.1404,12.34,98,100,1.61,RU,1689927131
81,constantia,44.1833,28.65,29.28,57,0,5.89,RO,1689926978
82,mata-utu,-13.2816,-176.1745,28.08,75,11,2.99,WF,1689927045
83,san martin,-33.081,-68.4681,5.3,76,7,1.25,AR,1689927131
84,ust-nera,64.5667,143.2,20.72,80,97,1.65,RU,1689927131
85,siwa oasis,29.2041,25.5195,34.69,24,0,2.6,EG,1689927132
86,uturoa,-16.7333,-151.4333,24.52,65,42,8.74,PF,1689927132
87,vatutinki,55.4983,37.3325,20.24,49,40,5.0,RU,1689927132
88,pisco,-13.7,-76.2167,15.03,88,6,2.06,PE,1689927132
89,petropavlovsk-kamchatsky,53.0452,158.6483,16.33,94,75,2.0,RU,1689927132
90,thompson,55.7435,-97.8558,14.09,82,20,0.0,CA,1689927133
91,lihue,21.9789,-159.3672,26.77,79,75,7.72,US,1689927133
92,arta,39.1606,20.9853,31.8,29,0,1.36,GR,1689927117
93,jamestown,42.097,-79.2353,18.08,99,75,4.12,US,1689927133
94,kurayoshi,35.4333,133.8167,26.39,77,16,2.99,JP,1689927133
95,port lincoln,-34.7333,135.8667,12.53,66,17,4.45,AU,1689927134
96,guerrero negro,27.9769,-114.0611,19.47,85,100,5.46,MX,1689927134
97,vilhena,-12.7406,-60.1458,18.31,54,0,0.56,BR,1689927134
98,san borja,-14.8167,-66.85,18.39,81,0,0.89,BO,1689927134
99,klyuchi,52.2667,79.1667,30.68,30,100,5.2,RU,1689927134
100,batu pahat,1.8548,102.9325,29.3,70,100,3.78,MY,1689927135
101,wolbrom,50.3796,19.7583,19.35,58,100,1.55,PL,1689927135
102,talnakh,69.4865,88.3972,20.34,84,100,2.4,RU,1689927135
103,tocopilla,-22.092,-70.1979,15.73,76,32,0.36,CL,1689927135
104,szczawnica,49.4244,20.4849,20.05,54,100,1.76,PL,1689927136
105,tyukhtet,56.5389,89.3011,24.73,59,100,2.32,RU,1689927136
106,yellowknife,62.456,-114.3525,19.29,72,100,3.09,CA,1689927136
107,wailua homesteads,22.0669,-159.378,26.44,80,75,7.72,US,1689927136
108,panaba,21.2833,-88.2667,24.34,93,99,2.54,MX,1689927136
109,inari,68.906,27.0288,10.11,91,100,5.79,FI,1689927136
110,tralee,52.2704,-9.7026,14.14,88,100,1.54,IE,1689927137
111,velikiy ustyug,60.7644,46.3106,13.81,97,100,4.06,RU,1689927137
112,utrik,11.2278,169.8474,28.46,80,89,9.05,MH,1689927137
113,sotik post,-0.7813,35.3416,22.61,35,52,2.38,KE,1689927137
114,carnarvon,-24.8667,113.6333,21.25,36,100,8.35,AU,1689927137
115,ciudad lazaro cardenas,17.9583,-102.2,26.41,87,22,1.42,MX,1689927138
116,keflavik,64.0049,-22.5624,12.95,87,100,7.2,IS,1689927138
117,al badari,26.9926,31.4155,37.08,13,0,3.13,EG,1689927138
118,tara,56.8944,74.371,26.37,52,97,2.79,RU,1689927138
119,khandyga,62.6667,135.6,14.91,89,100,3.27,RU,1689927138
120,tura,25.5198,90.2201,30.01,80,99,1.27,IN,1689927139
121,garoua,9.3,13.4,25.54,80,96,2.4,CM,1689927139
122,kill devil hills,36.0307,-75.676,27.77,89,75,4.12,US,1689927139
123,ketchikan,55.3422,-131.6461,16.26,88,0,2.57,US,1689927139
124,fish town,5.1964,-7.8756,23.1,94,70,1.56,LR,1689927139
125,dunedin,-45.8742,170.5036,7.67,61,6,4.92,NZ,1689926913
126,enewetak,11.3474,162.3373,28.56,80,46,7.71,MH,1689927140
127,puerto ayora,-0.7393,-90.3518,24.75,94,49,3.13,EC,1689927140
128,willowmore,-33.2926,23.4895,6.82,64,26,2.84,ZA,1689927140
129,rio grande,-32.035,-52.0986,15.53,97,72,5.96,BR,1689927140
130,tommot,58.9564,126.2925,17.8,91,84,3.57,RU,1689927140
131,badger,64.8,-147.5333,17.93,85,20,0.0,US,1689927140
132,gaoual,11.75,-13.2,24.64,96,89,0.71,GN,1689927141
133,tazovsky,67.4667,78.7,25.08,40,86,5.59,RU,1689927141
134,arteche,12.2645,125.4048,28.99,79,36,2.38,PH,1689927141
135,nova sintra,14.8667,-24.7167,23.39,84,100,4.26,CV,1689927141
136,saint-francois,46.4154,3.9054,20.38,64,0,3.6,FR,1689927142
137,gaspe,48.8334,-64.4819,13.95,100,20,1.54,CA,1689927142
138,dalhousie,32.5333,75.9833,23.12,72,40,2.27,IN,1689927142
139,kangding,30.0513,101.9603,19.26,78,100,2.23,CN,1689927142
140,mount pearl,47.5166,-52.7813,18.51,93,100,8.75,CA,1689927142
141,port alfred,-33.5906,26.891,13.43,68,58,3.13,ZA,1689927142
142,hasaki,35.7333,140.8333,29.22,79,0,5.28,JP,1689927093
143,nyurba,63.2842,118.3319,20.0,66,100,2.83,RU,1689927143
144,cabo san lucas,22.8909,-109.9124,31.45,70,8,4.3,MX,1689927143
145,yuzhno-kurilsk,44.0306,145.8556,16.06,90,53,3.72,RU,1689927143
146,traverse city,44.7631,-85.6206,17.11,94,9,0.89,US,1689927143
147,kalengwa,-13.4659,25.0027,24.03,32,28,5.68,ZM,1689927144
148,harstad,68.799,16.5293,15.66,91,100,1.34,NO,1689927144
149,eyl,7.9803,49.8164,33.07,44,10,14.25,SO,1689927144
150,kingston,17.997,-76.7936,25.69,87,69,0.45,JM,1689927094
151,margaret river,-33.95,115.0667,15.27,61,46,5.5,AU,1689927144
152,hawaiian paradise park,19.5933,-154.9731,22.73,97,100,2.57,US,1689927145
153,nadym,65.5333,72.5167,27.96,38,100,5.13,RU,1689927145
154,hermanus,-34.4187,19.2345,11.56,62,52,4.08,ZA,1689927145
155,kachug,53.9606,105.8817,27.89,26,100,0.64,RU,1689927145
156,ceeldheer,3.8488,47.1806,31.15,56,75,12.54,SO,1689927145
157,bolobo,-2.1667,16.2333,28.81,44,19,1.95,CD,1689927146
158,labrador city,52.9463,-66.9114,11.95,87,0,2.06,CA,1689927146
159,svetlyy,54.675,20.1347,19.03,73,20,6.33,RU,1689926915
160,belyy yar,53.6039,91.3903,22.94,73,40,1.0,RU,1689927146
161,la'ie,21.6477,-157.9253,25.98,81,65,2.68,US,1689927146
162,ormond-by-the-sea,29.3491,-81.0665,27.23,86,0,3.09,US,1689927147
163,tazacorte,28.629,-17.9293,23.54,93,75,8.23,ES,1689927147
164,belfast,54.5833,-5.9333,14.33,83,75,4.12,GB,1689927045
165,bali chak,22.3667,87.55,33.19,63,100,7.04,IN,1689927148
166,isafjordur,66.0755,-23.124,10.02,76,0,0.0,IS,1689927149
167,poronaysk,49.2167,143.1167,15.92,97,73,3.54,RU,1689927149
168,meadow lake,34.8014,-106.5436,26.71,46,31,1.62,US,1689927149
169,cidreira,-30.1811,-50.2056,15.69,92,94,2.93,BR,1689927149
170,mossel bay,-34.1831,22.146,12.96,55,0,2.94,ZA,1689927149
171,wenling,28.3669,121.36,29.72,81,94,6.48,CN,1689927150
172,dryden,49.7833,-92.7503,15.16,94,0,2.06,CA,1689927150
173,peace river,56.2501,-117.286,18.14,87,0,0.0,CA,1689927150
174,sao jose da coroa grande,-8.8978,-35.1478,23.55,76,32,6.24,BR,1689927150
175,suining,30.508,105.5733,31.37,65,96,2.39,CN,1689927151
176,tasqala,51.1167,50.3167,24.88,39,99,4.35,KZ,1689927151
177,thames,-37.1333,175.5333,10.72,83,99,6.31,NZ,1689927151
178,belmonte,-15.8631,-38.8828,21.92,89,92,5.72,BR,1689927151
179,sao tome,0.3365,6.7273,24.43,75,100,4.1,ST,1689927151
180,christchurch,-43.5333,172.6333,6.06,80,40,1.03,NZ,1689927152
181,hilo,19.7297,-155.09,23.12,96,100,2.57,US,1689927152
182,santo antonio do ica,-3.1022,-67.9397,22.65,92,62,0.73,BR,1689927152
183,hammerfest,70.6634,23.6821,10.25,87,75,3.6,NO,1689927152
184,college,64.8569,-147.8028,17.97,82,40,0.0,US,1689927152
185,susuman,62.7833,148.1667,29.16,33,38,5.74,RU,1689927153
186,olyokminsk,60.3736,120.4264,21.34,61,100,2.79,RU,1689927153
187,lynn haven,30.2455,-85.6483,28.33,89,0,0.0,US,1689927153
188,chibougamau,49.9168,-74.3659,14.79,94,100,1.3,CA,1689927153
189,kargasok,59.0556,80.8572,25.01,60,56,4.57,RU,1689927153
190,dudinka,69.4058,86.1778,26.02,60,91,4.28,RU,1689927154
191,alice springs,-23.7,133.8833,17.75,36,0,5.66,AU,1689927154
192,necocli,8.4234,-76.786,26.41,93,79,1.36,CO,1689927154
193,east london,-33.0153,27.9116,12.52,71,0,4.63,ZA,1689927154
194,tabriz,38.08,46.2919,31.7,27,20,2.06,IR,1689927094
195,cholapuram,9.3667,77.5833,35.24,34,78,6.94,IN,1689927154
196,muynoq,43.7683,59.0214,32.92,29,0,5.06,UZ,1689927155
197,marsh harbour,26.5412,-77.0636,28.96,75,14,4.46,BS,1689927155
198,hamilton,39.1834,-84.5333,21.48,91,0,3.09,US,1689927155
199,kamin-kashyrskyi,51.6241,24.9586,20.14,50,43,3.51,UA,1689927155
200,ambodifotatra,-16.9833,49.85,22.98,83,100,5.42,MG,1689927155
201,dambulla,7.86,80.6517,34.33,37,100,6.76,LK,1689927155
202,sinabang,2.4803,96.3801,28.64,74,87,3.23,ID,1689927156
203,nemuro,43.3236,145.575,16.13,89,3,5.91,JP,1689927024
204,al muwayh,22.4333,41.7583,39.22,6,64,6.91,SA,1689927156
205,cole harbour,44.6724,-63.4751,18.99,98,4,2.57,CA,1689927156
206,chuzhou,32.3219,118.2978,31.23,77,99,2.94,CN,1689927102
207,haiku-pauwela,20.9219,-156.3051,25.02,81,20,7.72,US,1689927157
208,kodiak,57.79,-152.4072,12.73,82,75,4.12,US,1689927157
209,broken hill,-31.95,141.4333,10.59,51,0,3.94,AU,1689927157
210,namibe,-15.1961,12.1522,19.41,75,7,0.96,AO,1689927157
211,kimbe,-5.5502,150.1429,27.32,78,57,1.13,PG,1689927157
212,petrozavodsk,61.7849,34.3469,14.71,93,100,4.0,RU,1689927043
213,laascaanood,8.4774,47.3597,30.33,40,41,15.89,SO,1689927158
214,yanbu,24.0891,38.0637,36.75,37,7,5.38,SA,1689927111
215,gorom-gorom,14.4439,-0.2361,32.91,46,89,5.82,BF,1689927158
216,khuzdar,27.7384,66.6434,33.81,40,57,5.24,PK,1689927158
217,victorica,-36.2151,-65.4359,9.04,74,90,3.92,AR,1689927159
218,pervomayskoye,43.919,46.7102,33.72,34,92,7.12,RU,1689927159
219,bom jesus,-9.0744,-44.3586,17.61,70,24,1.79,BR,1689927159
220,vila franca do campo,37.7167,-25.4333,21.23,86,100,0.93,PT,1689927159
221,tartagal,-22.5164,-63.8013,12.91,90,0,1.01,AR,1689926975
222,gadzhiyevo,69.2551,33.3362,9.14,77,100,8.26,RU,1689927160
223,palmer,42.1584,-72.3287,19.92,92,0,0.0,US,1689927160
224,maun,-19.9833,23.4167,17.61,52,65,6.15,BW,1689927160
225,anadyr,64.75,177.4833,15.28,82,40,2.0,RU,1689927160
226,amahai,-3.3333,128.9167,26.82,80,74,4.88,ID,1689927160
227,igarka,67.4667,86.5833,27.32,40,16,6.08,RU,1689927161
228,inhambane,-23.865,35.3833,20.55,59,100,6.67,MZ,1689927161
229,miranpur,29.3,77.9333,37.96,42,53,1.49,IN,1689927161
230,opuwo,-18.0607,13.84,19.89,20,0,3.93,NA,1689927161
231,kalix,65.853,23.1565,14.95,73,100,3.53,SE,1689927161
232,amal,59.051,12.7049,15.5,73,100,2.73,SE,1689927161
233,jember,-8.166,113.7032,27.52,62,59,2.48,ID,1689926692
234,palikir - national government center,6.9248,158.1611,27.75,79,100,7.34,FM,1689927162
235,tegueste,28.5167,-16.3167,22.03,87,75,11.62,ES,1689927162
236,llanes,43.4198,-4.7549,19.6,77,67,1.68,ES,1689927162
237,miasskoye,55.2784,61.8905,24.49,41,83,4.41,RU,1689927162
238,geraldton,-28.7667,114.6,19.23,55,0,5.66,AU,1689926864
239,sidney,-33.8679,151.2073,14.64,65,40,7.2,AU,1689927010
240,udachny,66.4167,112.4,21.36,52,47,3.13,RU,1689927163
241,jayapura,-2.5333,140.7,29.66,84,33,2.97,ID,1689927117
242,sechura,-5.5569,-80.8222,21.04,80,64,4.84,PE,1689927163
243,nuuk,64.1835,-51.7216,8.34,93,100,9.77,GL,1689927164
244,auch,43.65,0.5833,20.49,66,98,0.45,FR,1689927164
245,ilulissat,69.2167,-51.1,8.01,87,75,1.54,GL,1689927164
246,vadso,70.0744,29.7487,9.49,87,75,8.23,NO,1689927164
247,vredendal,-31.6683,18.5012,12.55,43,2,5.33,ZA,1689927165
248,rawson,-43.3002,-65.1023,12.58,60,100,6.02,AR,1689927165
249,itaituba,-4.2761,-55.9836,21.24,66,0,0.16,BR,1689927165
250,whistler,50.1164,-122.9695,15.66,76,6,1.27,CA,1689927165
251,denison,33.7557,-96.5367,27.73,78,6,2.24,US,1689927165
252,zharkent,44.1628,80.0,37.25,17,100,2.79,KZ,1689927165
253,nichinan,31.6,131.3667,26.95,85,100,1.4,JP,1689927166
254,telavi,41.9198,45.4731,28.76,44,59,2.68,GE,1689927166
255,zakamensk,50.3741,103.2863,20.21,72,85,2.91,RU,1689927166
256,cabanas,22.9758,-82.9219,26.0,79,86,2.04,CU,1689927167
257,ola,59.5833,151.2833,23.97,83,2,4.65,RU,1689927167
258,vorgashor,67.5833,63.95,25.03,52,38,5.04,RU,1689927167
259,challapata,-18.9,-66.7667,5.21,37,0,1.53,BO,1689927168
260,santa sylvina,-27.8326,-61.1375,20.34,65,100,5.85,AR,1689927168
261,yarmouth,41.7057,-70.2286,20.54,96,0,0.45,US,1689927168
262,san carlos de bariloche,-41.1456,-71.3082,5.14,93,100,2.57,AR,1689927168
263,zaozersk,69.4005,32.4476,9.06,78,100,8.0,RU,1689927169
264,bengkulu,-3.8004,102.2655,27.6,75,63,3.7,ID,1689926893
265,raja,8.4596,25.678,29.66,52,51,2.29,SS,1689927169
266,seguela,7.9611,-6.6731,21.82,93,100,2.57,CI,1689927169
267,harnosand,62.6323,17.9379,19.0,81,29,1.69,SE,1689927169
268,portland,45.5234,-122.6762,20.03,76,0,3.09,US,1689927170
269,saurimo,-9.6608,20.3916,27.44,23,8,1.62,AO,1689927170
270,crane,31.3974,-102.3501,27.59,35,21,4.21,US,1689927170
271,montrose,38.4166,-108.2673,16.67,55,8,1.22,US,1689927170
272,saint-philippe,-21.3585,55.7679,23.77,74,3,3.62,RE,1689927171
273,kapa'a,22.0752,-159.319,27.18,80,75,7.72,US,1689927171
274,weno,7.4515,151.8468,28.97,84,75,3.09,FM,1689927171
275,touros,-5.1989,-35.4608,22.34,84,12,5.23,BR,1689927016
276,amqui,48.4638,-67.4313,12.24,86,91,1.9,CA,1689927171
277,kourou,5.1552,-52.6478,22.03,90,16,1.94,GF,1689927171
278,pimentel,-6.8367,-79.9342,21.16,88,75,3.6,PE,1689927172
279,meizhou,24.2977,116.1072,32.03,72,99,2.18,CN,1689926972
280,new norfolk,-42.7826,147.0587,9.28,84,55,1.45,AU,1689927172
281,barra de santo antonio,-9.4047,-35.5072,21.6,82,52,5.55,BR,1689927172
282,mamou,10.5,-12.0,21.7,94,64,0.26,GN,1689927172
283,rovnoye,50.7765,46.0509,20.43,64,100,3.54,RU,1689927173
284,amlapura,-8.45,115.6167,26.46,60,0,4.91,ID,1689927173
285,banjar,-8.19,114.9675,28.29,54,1,2.15,ID,1689927173
286,tolanaro,-25.0319,46.9987,18.81,80,100,5.4,MG,1689927173
287,pindiga,9.9833,10.9333,25.6,73,100,4.01,NG,1689927173
288,nikel,69.4128,30.222,9.1,78,100,8.02,RU,1689927173
289,smara,26.7384,-11.6719,22.12,72,0,7.42,EH,1689927174
290,miri,4.4148,114.0089,24.47,90,100,2.43,MY,1689927174
291,kudahuvadhoo,2.6708,72.8944,28.16,76,100,4.74,MV,1689927174
292,yashkul',46.1711,45.3435,30.99,27,62,3.72,RU,1689927174
293,kyakhta,50.3508,106.4494,25.94,31,4,3.76,RU,1689927175
294,yibin,28.7667,104.6238,26.58,88,100,0.7,CN,1689927175
295,senj,44.9894,14.9058,28.71,61,1,1.65,HR,1689927175
296,galveston,29.3669,-94.9669,28.33,88,0,0.89,US,1689927175
297,katsuren-haebaru,26.3369,127.8719,32.01,62,75,2.06,JP,1689927175
298,usinsk,65.9939,57.5281,24.35,56,67,4.03,RU,1689927175
299,kayangel,8.0823,134.7173,28.73,79,100,6.89,PW,1689927176
300,kara,9.5511,1.1861,25.14,84,97,3.28,TG,1689927176
301,tromso,69.6496,18.957,13.01,76,0,2.06,NO,1689927176
302,kapuskasing,49.4169,-82.4331,12.05,94,0,2.57,CA,1689927176
303,arauca,7.0847,-70.7591,21.88,99,100,0.21,CO,1689927176
304,san antonio de pale,-1.4014,5.6325,23.0,73,100,4.37,GQ,1689927177
305,willemstad,12.1084,-68.9335,27.32,86,4,10.84,CW,1689927177
306,yulinshi,38.2906,109.7494,28.76,30,21,8.92,CN,1689927177
307,tomatlan,19.9333,-105.25,24.61,93,55,1.21,MX,1689927177
308,kabanjahe,3.1001,98.4908,24.75,65,93,2.16,ID,1689927177
309,cockburn town,21.4612,-71.1419,27.65,82,44,6.01,TC,1689927177
310,mili,6.0815,171.735,28.41,83,52,8.21,MH,1689927178
311,puerto baquerizo moreno,-0.9,-89.6,24.73,84,17,4.51,EC,1689927178
312,nizhnesortymskiy,62.4397,71.7603,26.45,45,100,4.42,RU,1689927178
313,nogliki,51.8333,143.1667,17.15,87,40,4.01,RU,1689927178
314,smithers,54.7804,-127.1743,14.18,100,0,0.0,CA,1689927178
315,flying fish cove,-10.4217,105.6791,24.82,78,75,7.2,CX,1689927179
316,san julian,21.0167,-102.1667,13.24,86,44,1.28,MX,1689927179
317,castelo do piaui,-5.3222,-41.5525,21.79,59,0,4.11,BR,1689927179
318,taoudenni,22.6783,-3.9836,38.85,8,5,1.83,ML,1689927179
319,bandarbeyla,9.4942,50.8122,31.82,48,96,13.08,SO,1689927179
320,dakhla,23.6848,-15.958,22.01,78,100,11.83,EH,1689927180
321,anse-bertrand,16.4721,-61.5078,23.9,100,100,4.54,GP,1689927180
322,begoro,6.3871,-0.3774,21.67,92,100,1.96,GH,1689927180
323,mae hong son,19.3003,97.9685,31.49,69,100,1.15,TH,1689927180
324,san pedro pochutla,15.7333,-96.4667,25.4,86,42,2.26,MX,1689927180
325,shimanovsk,52.0,127.7,27.83,27,98,2.22,RU,1689927180
326,mingshui,36.7167,117.5,28.64,73,100,3.8,CN,1689927181
327,chui,-33.6971,-53.4616,14.7,94,82,4.53,UY,1689927181
328,rio preto da eva,-2.6994,-59.6997,23.54,60,12,1.09,BR,1689927181
329,lucapa,-8.4192,20.7447,30.04,21,6,0.53,AO,1689927182
330,nykobing sjaelland,55.9249,11.6711,17.19,71,97,7.28,DK,1689927182
331,bairnsdale,-37.8333,147.6167,8.92,86,43,2.29,AU,1689927182
332,laguna,38.421,-121.4238,25.99,61,0,2.06,US,1689927182
333,holualoa,19.6228,-155.9522,23.91,99,20,4.63,US,1689927183
334,betio village,1.358,172.9211,26.02,77,95,3.17,KI,1689927183
335,leesville,31.1435,-93.261,27.24,89,0,1.54,US,1689927183
336,uliastay,47.7417,96.8444,25.55,28,100,4.84,MN,1689927184
337,an nuhud,12.7,28.4333,31.36,46,31,7.21,SD,1689927184
338,sarupathar,26.1984,93.8094,33.12,63,99,1.95,IN,1689927184
339,almeirim,-1.5233,-52.5817,23.22,88,24,1.41,BR,1689927184
340,kirakira,-10.4544,161.9205,26.44,89,99,2.86,SB,1689927184
341,adrar,20.5022,-10.0711,31.71,14,0,4.43,MR,1689927142
342,saipan,15.1355,145.701,29.39,100,75,5.66,MP,1689926893
343,colonia,50.9333,6.95,19.68,80,40,1.03,DE,1689927185
344,houlton,46.1262,-67.8403,17.23,83,20,2.57,US,1689927185
345,scottburgh,-30.2867,30.7532,16.59,59,80,5.31,ZA,1689927185
346,bamboo flat,11.7,92.7167,30.05,79,75,5.14,IN,1689927186
347,jinghong,21.991,100.7341,31.76,64,89,1.53,CN,1689927187
348,freetown,8.484,-13.2299,25.84,83,75,2.06,SL,1689927187
349,coronel du graty,-27.6804,-60.9146,20.57,66,100,5.72,AR,1689927188
350,la passe,45.5549,-0.8967,20.13,64,9,3.73,FR,1689927188
351,al mijlad,11.0333,27.7333,30.68,51,48,5.47,SD,1689927188
352,severo-yeniseyskiy,60.3725,93.0408,26.98,25,98,4.18,RU,1689927189
353,inda silase,14.1031,38.2829,22.16,63,99,1.84,ET,1689927189
354,newman,37.3138,-121.0208,24.13,72,0,1.82,US,1689927189
355,zvecan,42.9075,20.8403,27.11,63,0,1.82,XK,1689927189
356,evanston,42.0411,-87.6901,21.09,80,75,2.24,US,1689927189
357,fort bragg,35.139,-79.006,25.11,86,20,2.57,US,1689927190
358,paris,48.8534,2.3488,17.98,75,0,4.12,FR,1689926535
359,dossor,47.5272,52.9811,30.3,29,0,1.62,KZ,1689927190
360,cromwell,41.5951,-72.6454,21.88,95,100,2.06,US,1689927191
361,noosa heads,-26.3833,153.15,18.95,65,65,1.56,AU,1689927191
362,akrehamn,59.2667,5.1833,13.33,87,75,1.54,NO,1689927191
363,xilin hot,43.9667,116.0333,23.1,56,100,9.15,CN,1689927191
364,nelspruit,-25.4745,30.9703,11.78,92,100,0.4,ZA,1689927192
365,polyarnyy,69.1989,33.4478,9.42,77,100,8.19,RU,1689927141
366,mehtar lam,34.6714,70.2094,36.84,32,0,2.71,AF,1689927192
367,leua,48.2156,18.6071,18.32,71,100,0.84,SK,1689927107
368,bel ombre,-4.6167,55.4167,27.91,78,40,7.2,SC,1689927192
369,tordesillas,41.5103,-5.0082,18.97,60,23,3.9,ES,1689927193
370,kalabo,-14.97,22.6814,24.16,28,48,5.44,ZM,1689927193
371,lensk,60.7253,114.9278,26.56,40,100,3.73,RU,1689927193
372,arcachon,44.5875,-1.0519,22.03,56,40,4.63,FR,1689927193
373,badagara,11.6,75.5833,27.54,82,99,6.2,IN,1689927193
374,gereida,11.2811,25.1414,30.81,51,70,4.82,SD,1689927194
375,fushun,41.8558,123.9233,31.84,66,84,0.47,CN,1689927194
376,gamba,-2.65,10.0,23.07,78,84,2.73,GA,1689927195
377,bikenibeu village,1.3673,173.1241,25.98,94,100,1.54,KI,1689927195
378,kostroma,57.7708,40.9344,19.58,55,6,6.4,RU,1689927113
379,tailai,46.3833,123.4,25.71,62,97,3.12,CN,1689927196
380,vrangel',42.7297,133.0839,21.5,85,76,2.84,RU,1689927196
381,gisborne,-38.6533,178.0042,11.6,93,100,10.77,NZ,1689927113
382,port douglas,-16.4833,145.4667,22.24,78,86,3.78,AU,1689927196
383,moyale,3.5167,39.0584,23.81,47,79,8.52,KE,1689927196
384,pariaman,-0.619,100.12,29.03,65,85,3.08,ID,1689927197
385,sisimiut,66.9395,-53.6735,6.21,98,100,2.98,GL,1689927197
386,hithadhoo,-0.6,73.0833,28.76,74,100,6.4,MV,1689927197
387,vila velha,-20.3297,-40.2925,18.97,98,100,2.57,BR,1689927197
388,gilgit,35.9221,74.3087,32.39,45,24,0.82,PK,1689927197
389,north platte,41.1239,-100.7654,17.29,96,100,1.54,US,1689927197
390,sungai raya,0.7,108.9,28.52,71,100,4.07,ID,1689927198
391,pindushi,62.9152,34.58,11.58,96,100,3.66,RU,1689927198
392,peterhead,57.5058,-1.7981,12.47,77,97,8.2,GB,1689927198
393,krasnyy chikoy,50.3643,108.7512,22.52,57,59,1.48,RU,1689927198
394,eraan,9.0629,117.7016,25.81,93,100,4.54,PH,1689927198
395,balqash,46.8481,74.995,33.33,17,20,6.0,KZ,1689927198
396,yuzhnoural'sk,54.4418,61.2536,23.11,40,82,2.09,RU,1689927199
397,lastoursville,-0.8143,12.7287,22.47,100,100,0.68,GA,1689927199
398,lerwick,60.1545,-1.1494,12.0,78,100,4.02,GB,1689927199
399,sarkand,45.41,79.9186,36.08,14,53,7.68,KZ,1689927200
400,la reforma,25.0833,-108.05,27.76,74,100,1.07,MX,1689927200
401,minab,27.1467,57.0801,37.64,48,100,4.11,IR,1689926978
402,sabang,5.8933,95.3214,29.04,73,92,10.64,ID,1689927201
403,shijiazhuang,38.0414,114.4786,24.85,88,100,3.53,CN,1689927201
404,coyhaique,-45.5752,-72.0662,3.63,99,100,2.09,CL,1689927201
405,cannonvale,-20.2833,148.7,20.66,73,26,3.2,AU,1689927201
406,amungan,15.3652,119.9582,29.25,76,100,1.51,PH,1689927201
407,adrian,41.8975,-84.0372,18.08,86,0,3.09,US,1689927202
408,lorengau,-2.0226,147.2712,28.2,77,21,3.58,PG,1689927202
409,la ronge,55.1001,-105.2842,17.12,82,75,1.54,CA,1689927202
410,howrah,22.5892,88.3103,30.0,84,75,5.14,IN,1689927067
411,oranjemund,-28.55,16.4333,15.25,35,1,3.31,NA,1689927202
412,salekhard,66.53,66.6019,27.11,46,62,3.46,RU,1689927202
413,berezovyy,51.6667,135.7,28.8,52,100,1.74,RU,1689927203
414,gizo,-8.103,156.8419,27.07,84,100,8.23,SB,1689927203
415,hanamaki,39.3833,141.1167,25.11,78,40,4.12,JP,1689927203
416,arraial do cabo,-22.9661,-42.0278,20.77,65,100,7.19,BR,1689927203
417,itoman,26.1247,127.6694,32.01,62,75,3.09,JP,1689927083
418,zeya,53.75,127.2667,24.23,40,82,3.57,RU,1689927203
419,duartina,-22.4144,-49.4039,15.58,93,0,3.1,BR,1689927203
420,belomorsk,64.5232,34.7668,9.42,97,100,6.03,RU,1689927204
421,rongelap,11.1635,166.8941,28.61,79,78,7.85,MH,1689927204
422,galesong,-5.3166,119.3661,32.01,74,36,7.59,ID,1689927204
423,taro,-8.3862,115.28,24.0,54,0,2.06,ID,1689927204
424,keelakarai,9.2333,78.7833,34.48,42,100,7.57,IN,1689927205
425,coahuayana de hidalgo,18.7,-103.6583,25.52,82,22,1.69,MX,1689927205
426,aginskoye,51.1,114.53,27.25,27,100,2.37,RU,1689927205
427,quang ngai,15.1167,108.8,32.57,58,97,5.53,VN,1689927182
428,loango,-4.6719,11.8312,22.82,75,77,2.35,CG,1689927205
429,almenara,-16.1836,-40.6944,19.81,93,100,2.08,BR,1689927205
430,padre bernardo,-15.35,-48.5,17.2,69,3,2.13,BR,1689927205
431,boyolangu,-8.1181,111.8935,25.4,69,56,4.92,ID,1689927205
432,kalemie,-5.9475,29.1947,26.26,44,6,7.48,CD,1689927206
433,greymouth,-42.4667,171.2,4.36,82,0,4.81,NZ,1689927004
434,cooper's town,26.8667,-77.5167,29.34,74,18,4.75,BS,1689927206
435,buka,40.8108,69.1986,38.72,12,0,3.97,UZ,1689927206
436,blythe,33.6103,-114.5964,36.25,19,20,1.54,US,1689927206
437,sukhodol,53.9006,51.2117,24.53,40,53,5.8,RU,1689927207
438,harper,4.375,-7.7169,25.53,83,72,5.44,LR,1689927207
439,hami,42.8,93.45,39.39,9,29,2.61,CN,1689927207
440,tannum sands,-23.9504,151.3693,20.42,64,40,2.06,AU,1689927207
441,princeville,45.7668,-61.2985,20.2,97,100,1.03,CA,1689927207
442,kalmunai,7.4167,81.8167,35.29,43,89,1.43,LK,1689926948
443,birao,10.2849,22.7882,26.61,78,95,1.68,CF,1689926929
444,chamba,32.5667,76.1333,29.49,80,70,2.01,IN,1689927209
445,mhango,-3.2833,32.85,26.03,29,0,5.68,TZ,1689927209
446,tadine,-21.55,167.8833,19.7,70,4,6.19,NC,1689927209
447,yanchep,-31.55,115.6833,19.23,62,27,4.79,AU,1689927209
448,artesia,33.8658,-118.0831,27.38,82,0,1.54,US,1689927210
449,zomba,-15.386,35.3188,20.94,55,55,2.12,MW,1689927210
450,ras el oued,35.9441,5.0311,32.46,15,10,3.02,DZ,1689927210
451,manticao,8.4042,124.2867,28.45,79,100,1.99,PH,1689927210
452,bataipora,-22.2953,-53.2711,18.07,75,0,4.04,BR,1689927210
453,columbia falls,48.3725,-114.1815,17.17,65,0,1.54,US,1689927211
454,as salamiyah,35.0113,37.0532,35.22,17,0,5.07,SY,1689927211
455,yerofey pavlovich,53.9667,121.9667,22.94,35,21,3.71,RU,1689927211
456,cabedelo,-6.9811,-34.8339,22.37,75,29,7.0,BR,1689927209
457,axim,4.8699,-2.2405,25.46,84,63,3.06,GH,1689927211
458,labuan,5.2767,115.2417,25.2,83,40,3.6,MY,1689927211
459,buriti dos lopes,-3.175,-41.8669,18.88,84,1,1.28,BR,1689927211
460,saint-joseph,-21.3667,55.6167,24.71,73,3,3.7,RE,1689927212
461,tezu,27.9167,96.1667,35.31,53,86,1.1,IN,1689927063
462,aral,40.5156,81.2636,39.81,10,91,6.48,CN,1689927212
463,mugia,43.1041,-9.2179,17.73,73,0,1.01,ES,1689927212
464,katsuura,35.1333,140.3,25.13,81,19,5.98,JP,1689927176
465,iwaki,37.05,140.8833,26.54,78,63,0.89,JP,1689927060
466,papao,-17.75,-149.55,21.82,65,8,8.14,PF,1689927213
467,antofagasta,-23.65,-70.4,17.6,91,34,0.33,CL,1689927056
468,lompoc,34.6391,-120.4579,13.62,96,100,1.54,US,1689927213
469,kruisfontein,-34.0033,24.7314,9.38,54,0,2.82,ZA,1689927213
470,kyshtovka,56.555,76.6271,24.31,78,56,4.09,RU,1689927213
471,al kharj,24.155,47.3346,45.32,5,51,0.99,SA,1689927213
472,hotan,37.0997,79.9269,37.73,7,73,3.01,CN,1689927135
473,cowra,-33.8333,148.6833,6.07,83,6,2.53,AU,1689927214
474,ambon,-3.6954,128.1814,27.08,83,75,2.57,ID,1689927214
475,castillos,-34.1667,-53.8333,14.14,95,42,4.31,UY,1689927214
476,chivhu,-19.0211,30.8922,14.46,66,91,6.78,ZW,1689927215
477,datong,40.0936,113.2914,20.8,68,96,1.89,CN,1689927215
478,saint john,45.2727,-66.0677,15.0,100,75,1.03,CA,1689927215
479,el granada,37.5027,-122.4694,17.67,87,100,4.12,US,1689927215
480,dalnerechensk,45.9339,133.7225,28.24,70,8,3.73,RU,1689927215
481,sao vicente,-23.9631,-46.3919,20.71,26,13,1.57,BR,1689927216
482,mount gambier,-37.8333,140.7667,8.28,88,6,2.15,AU,1689927216
483,jand,33.4299,72.0193,37.0,41,4,2.17,PK,1689927216
484,aquin,18.2833,-73.4,26.55,89,57,2.74,HT,1689927217
485,nyala,12.05,24.8833,30.89,46,64,3.65,SD,1689927217
486,iluppur,10.5135,78.6236,35.64,28,66,6.47,IN,1689927217
487,iskateley,67.6803,53.1512,20.21,75,99,6.41,RU,1689927217
488,nova xavantina,-14.6667,-52.35,17.64,54,1,1.11,BR,1689927217
489,ta`u,-14.2336,-169.5144,26.94,82,53,6.78,AS,1689927218
490,raduzhny,62.0961,77.475,20.99,69,100,2.72,RU,1689927218
491,talavera de la reina,39.9635,-4.8308,21.83,41,0,3.3,ES,1689927085
492,kampong thom,12.7111,104.8887,31.24,66,97,1.95,KH,1689927219
493,al ghayzah,16.2079,52.176,28.78,73,93,4.36,YE,1689927219
494,merizo village,13.2658,144.6691,29.31,89,100,4.48,GU,1689927220
495,cidade velha,14.9167,-23.6167,26.26,83,40,3.09,CV,1689927220
496,awjilah,29.1081,21.2869,33.78,25,0,3.42,LY,1689927220
497,new plymouth,-39.0667,174.0833,9.89,68,100,10.23,NZ,1689927102
498,okhotsk,59.3833,143.3,14.17,83,60,5.8,RU,1689927220
499,ancud,-41.8697,-73.8203,10.62,89,100,9.67,CL,1689927220
500,novo aripuana,-5.1206,-60.3797,21.4,66,1,0.7,BR,1689927221
501,pimenta bueno,-11.6725,-61.1936,19.22,59,0,0.4,BR,1689927221
502,weatherford,32.7593,-97.7972,29.92,54,2,0.45,US,1689927221
503,tsuyama,35.05,134.0,30.46,63,26,2.2,JP,1689927221
504,vero beach,27.6386,-80.3973,28.32,90,0,1.54,US,1689927222
505,kampene,-3.6,26.6667,31.3,38,7,1.56,CD,1689927222
506,al bawiti,28.3492,28.8659,34.62,20,0,2.15,EG,1689927223
507,karkira,36.9292,6.5856,34.59,37,8,3.19,DZ,1689927223
508,chonchi,-42.6128,-73.8092,10.56,86,100,4.13,CL,1689927223
509,garachico,28.7781,-17.7646,22.06,69,75,8.23,ES,1689927223
510,humberto de campos,-2.5983,-43.4611,22.7,94,47,1.86,BR,1689927223
511,blacksburg,37.2296,-80.4139,21.09,76,75,2.57,US,1689927224
512,ust'-kulom,61.6864,53.6902,16.48,90,97,3.02,RU,1689927224
513,fort st. john,56.2499,-120.8529,16.94,67,0,3.6,CA,1689927224
514,la romana,18.4273,-68.9728,25.33,93,28,3.52,DO,1689927224
515,kamaishi,39.2667,141.8833,22.56,80,48,1.43,JP,1689927224
516,quelimane,-17.8786,36.8883,22.76,79,75,3.69,MZ,1689927225
517,bulawayo,-20.15,28.5833,11.73,83,98,7.39,ZW,1689927222
518,tarawa,1.419,172.984,26.05,94,100,1.54,KI,1689927050
519,qui nhon,13.7667,109.2333,29.98,70,49,4.05,VN,1689926986
520,guiuan,11.0333,125.7247,29.28,69,44,1.82,PH,1689927225
521,necochea,-38.5473,-58.7368,9.17,91,68,5.37,AR,1689927225
522,glace bay,46.1969,-59.957,19.59,98,100,2.06,CA,1689927226
523,flin flon,54.7682,-101.865,16.8,68,59,2.17,CA,1689927226
524,grootfontein,-19.5667,18.1167,18.38,22,1,3.52,NA,1689927226
525,son la,21.3167,103.9,29.48,71,84,1.69,VN,1689927226
526,ipora,-16.4419,-51.1178,17.7,66,0,2.12,BR,1689927227
527,nampula,-15.1165,39.2666,22.14,65,95,4.64,MZ,1689927227
528,yeraliyev,43.2,51.65,33.06,27,0,6.25,KZ,1689927227
529,acarau,-2.8856,-40.12,23.05,78,5,5.87,BR,1689927228
530,lebu,-37.6167,-73.65,11.96,93,82,7.49,CL,1689927228
531,deir ez-zor,35.3359,40.1408,38.54,12,0,5.46,SY,1689927228
532,bemetara,21.7,81.5333,33.14,58,97,6.92,IN,1689927229
533,guangyuan,32.442,105.823,31.73,62,100,3.32,CN,1689927229
534,ebon,4.582,168.6964,28.27,81,100,5.27,MH,1689927229
535,huarmey,-10.0681,-78.1522,19.83,84,51,2.03,PE,1689927229
536,seosan,36.7817,126.4522,27.74,72,7,2.67,KR,1689926988
537,esquina,-30.0144,-59.5272,18.04,86,97,4.43,AR,1689927229
538,palu,-0.8917,119.8707,28.22,88,94,1.49,ID,1689927006
539,charters towers,-20.1,146.2667,22.23,41,100,4.57,AU,1689927230
540,moapa valley,36.5805,-114.4703,34.49,19,96,1.15,US,1689927230
541,bajina basta,43.9708,19.5675,27.54,65,0,1.79,RS,1689927230
542,midvagur,62.0511,-7.1939,11.46,93,75,4.63,FO,1689927230
543,cururupu,-1.8283,-44.8683,22.45,96,33,1.39,BR,1689927231
544,ugoofaaru,5.6667,73.0,27.42,81,100,8.99,MV,1689927231
545,ujae,8.9322,165.7642,28.99,79,15,7.11,MH,1689927231
546,argo,37.6333,22.7333,37.88,22,0,1.42,GR,1689927047
547,karakol,42.4907,78.3936,19.61,69,100,3.3,KG,1689927231
548,port augusta,-32.5,137.7667,11.29,57,3,2.6,AU,1689927232
549,ghazni,33.5536,68.4269,30.45,23,2,1.74,AF,1689927232
550,catterick garrison,54.3775,-1.7223,12.7,85,100,4.12,GB,1689927232
551,moyobamba,-6.05,-76.9667,16.53,97,23,0.52,PE,1689927226
552,arfoud,31.4348,-4.2375,34.31,14,41,3.11,MA,1689927232
553,forster,-32.1667,152.5167,14.91,67,97,5.87,AU,1689927232
554,ilebo,-4.3167,20.5833,31.09,36,37,1.43,CD,1689927232
555,port-gentil,-0.7193,8.7815,24.98,78,20,5.66,GA,1689927233
